City_ID,City,Lat,Lng,Max Temp,Humidity,Cloudiness,Wind Speed,Country,Date
0,grytviken,-54.2811,-36.5092,33.44,81,49,8.23,GS,1697041563
1,adamstown,-25.066,-130.1015,68.54,71,73,12.06,PN,1697041563
2,prineville,44.2999,-120.8345,50.11,73,75,10.36,US,1697041564
3,tolanaro,-25.0319,46.9987,69.87,94,75,13.8,MG,1697041564
4,port-aux-francais,-49.35,70.2167,36.75,69,100,24.23,TF,1697041565
5,byron bay,-28.65,153.6167,58.71,83,5,6.04,AU,1697041393
6,tiksi,71.6872,128.8694,21.29,86,99,21.32,RU,1697041566
7,letterkenny,54.95,-7.7333,55.29,64,61,7.49,IE,1697041566
8,nampula,-15.1165,39.2666,85.95,51,20,14.97,MZ,1697041312
9,la mira tumbiscatio,18.6833,-102.2833,72.28,97,100,2.39,MX,1697041567
10,invercargill,-46.4,168.35,49.01,87,80,18.01,NZ,1697041568
11,waitangi,-43.9535,-176.5597,52.83,86,94,8.99,NZ,1697041568
12,la ronge,55.1001,-105.2842,48.45,61,0,13.8,CA,1697041569
13,la'ie,21.6477,-157.9253,80.56,73,99,5.99,US,1697041569
14,ushuaia,-54.8,-68.3,44.26,71,0,31.07,AR,1697041570
15,sejenane,37.0572,9.2381,79.75,30,21,12.21,TN,1697041570
16,nova sintra,14.8667,-24.7167,76.5,61,40,1.79,CV,1697041570
17,blackmans bay,-43.0167,147.3167,59.13,82,28,9.51,AU,1697041571
18,kailua-kona,19.6406,-155.9956,75.6,80,20,5.99,US,1697041563
19,turar ryskulov,42.5333,70.3333,65.14,33,3,6.42,KZ,1697041572
20,flying fish cove,-10.4217,105.6791,76.68,94,100,9.22,CX,1697041572
21,talnakh,69.4865,88.3972,33.21,98,100,3.87,RU,1697041573
22,port elizabeth,-33.918,25.5701,67.1,83,0,6.91,ZA,1697041573
23,west island,-12.1568,96.8225,78.78,83,24,11.5,CC,1697041573
24,hawaiian paradise park,19.5933,-154.9731,71.11,90,100,4.61,US,1697041574
25,bol,13.4586,14.7147,84.61,61,44,11.88,TD,1697041574
26,zhangatas,43.5667,69.75,61.14,41,15,7.29,KZ,1697041575
27,belmonte,-15.8631,-38.8828,81.72,61,65,9.44,BR,1697041575
28,edinburgh of the seven seas,-37.0676,-12.3116,57.99,92,100,27.51,SH,1697041576
29,petropavlovsk-kamchatsky,53.0452,158.6483,37.45,73,40,15.01,RU,1697041576
30,lionel town,17.8101,-77.2406,89.49,59,39,13.11,JM,1697041577
31,lycksele,64.5954,18.6735,39.07,93,100,11.5,SE,1697041577
32,college,64.8569,-147.8028,24.75,86,100,0.0,US,1697041578
33,okhtyrka,50.3104,34.8988,42.66,37,68,8.3,UA,1697041578
34,dongola,19.1667,30.4833,97.77,14,1,17.45,SD,1697041578
35,hamilton,39.1834,-84.5333,67.57,49,40,6.91,US,1697041579
36,margaret river,-33.95,115.0667,48.79,85,0,8.93,AU,1697041579
37,ar rutbah,33.0381,40.2848,79.77,32,100,5.75,IQ,1697041580
38,assomada,15.1,-23.6833,81.95,64,86,1.45,CV,1697041580
39,northam,51.0333,-4.2167,64.26,93,100,17.98,GB,1697041581
40,cockburn town,21.4612,-71.1419,84.49,78,47,16.37,TC,1697041581
41,bethel,41.3712,-73.414,68.63,54,40,11.5,US,1697041582
42,wilhelmsburg,48.1057,15.6054,70.12,73,46,2.98,AT,1697041582
43,haiku-pauwela,20.9219,-156.3051,75.04,74,20,5.75,US,1697041582
44,iqaluit,63.7506,-68.5145,37.13,69,40,6.91,CA,1697041583
45,yemetsk,63.4721,41.7941,35.11,97,100,10.96,RU,1697041583
46,bor,56.3567,44.0669,41.0,67,100,9.01,RU,1697041584
47,ostrach,47.95,9.3833,74.3,64,10,5.61,DE,1697041584
48,faya-largeau,17.9257,19.1043,96.93,15,12,14.52,TD,1697041585
49,lebu,-37.6167,-73.65,51.67,62,0,22.21,CL,1697041586
50,albany,42.6001,-73.9662,62.17,64,99,1.01,US,1697041586
51,black river,18.0264,-77.8487,89.85,56,16,13.58,JM,1697041587
52,zouerate,22.7187,-12.4521,96.03,9,26,13.0,MR,1697041587
53,manokwari,-0.8667,134.0833,78.26,84,50,3.47,ID,1697041588
54,udachny,66.4167,112.4,34.45,69,9,27.07,RU,1697041459
55,port alfred,-33.5906,26.891,65.17,97,95,1.99,ZA,1697041589
56,merizo village,13.2658,144.6691,81.99,91,100,22.68,GU,1697041589
57,hadibu,12.65,54.0333,81.55,78,43,5.01,YE,1697041590
58,ilhabela,-23.7781,-45.3581,77.49,75,5,7.34,BR,1697041489
59,chandbali,20.7833,86.7667,81.21,75,4,3.69,IN,1697041591
60,kangding,30.0513,101.9603,48.54,99,93,3.51,CN,1697041591
61,ust-nera,64.5667,143.2,7.21,99,79,3.0,RU,1697041592
62,skanor med falsterbo,55.4,12.85,59.02,84,100,25.08,SE,1697041592
63,jabor,5.921,169.6434,83.34,74,85,3.8,MH,1697041593
64,rio grande,-32.035,-52.0986,69.91,84,100,17.72,BR,1697041593
65,tafuna,-14.3358,-170.72,79.88,84,91,19.48,AS,1697041593
66,broome,42.2506,-75.833,58.01,75,75,10.36,US,1697041594
67,khamharia,20.9833,82.2667,76.03,70,0,3.74,IN,1697041594
68,papatowai,-46.5619,169.4708,48.31,84,91,19.73,NZ,1697041595
69,wailua homesteads,22.0669,-159.378,72.03,83,0,5.75,US,1697041595
70,ak'ordat,15.5486,37.8867,93.67,26,0,13.18,ER,1697041596
71,sheridan,44.8333,-106.9173,64.69,50,75,1.01,US,1697041561
72,san antonio de pale,-1.4014,5.6325,77.86,82,100,9.15,GQ,1697041596
73,adiake,5.2863,-3.304,78.35,87,100,7.38,CI,1697041597
74,igrim,63.1906,64.4162,37.02,85,100,13.0,RU,1697041597
75,sosnovo,60.5514,30.2144,50.4,93,100,17.94,RU,1697041598
76,egilsstadir,65.2653,-14.3948,37.31,65,75,9.22,IS,1697041598
77,vershino-darasunskiy,52.35,115.5167,40.42,69,1,3.85,RU,1697041599
78,praia da vitoria,38.7333,-27.0667,73.76,68,20,6.58,PT,1697041599
79,grabo,57.8363,12.2995,54.37,77,75,16.11,SE,1697041600
80,luderitz,-26.6481,15.1594,60.67,75,24,12.68,NA,1697041600
81,bredasdorp,-34.5322,20.0403,64.15,85,97,6.76,ZA,1697041600
82,shimoda,34.6667,138.95,64.11,75,55,10.22,JP,1697041601
83,san agustin de valle fertil,-30.6335,-67.4682,66.47,21,0,15.01,AR,1697041601
84,longyearbyen,78.2186,15.6401,22.84,68,20,14.97,SJ,1697041602
85,hammerfest,70.6634,23.6821,30.65,69,75,4.61,NO,1697041602
86,tazovsky,67.4667,78.7,35.94,98,100,9.44,RU,1697041603
87,iskateley,67.6803,53.1512,34.02,76,27,8.99,RU,1697041603
88,cuyapo,15.7819,120.6647,75.07,92,98,3.87,PH,1697041604
89,knjazevac,43.5648,22.2502,65.82,49,0,4.45,RS,1697041604
90,chibougamau,49.9168,-74.3659,46.02,87,100,11.5,CA,1697041604
91,afaahiti,-17.75,-149.2833,73.27,86,49,15.08,PF,1697041605
92,utrik,11.2278,169.8474,82.83,78,69,16.82,MH,1697041605
93,constantia,44.1833,28.65,56.08,55,0,9.1,RO,1697041607
94,avarua,-21.2078,-159.775,71.65,83,100,2.3,CK,1697041607
95,sankheda,22.1667,73.5833,85.78,63,2,2.28,IN,1697041608
96,mo i rana,66.3128,14.1428,43.27,81,75,0.0,NO,1697041497
97,uturoa,-16.7333,-151.4333,78.73,78,42,16.33,PF,1697041609
98,selfoss,63.9331,-20.9971,38.05,62,100,4.09,IS,1697041609
99,port mathurin,-19.6833,63.4167,73.81,77,98,5.59,MU,1697041610
100,freetown,8.484,-13.2299,85.71,74,75,10.36,SL,1697041611
101,hermanus,-34.4187,19.2345,62.69,86,88,5.3,ZA,1697041611
102,saint-pierre,-21.3393,55.4781,74.88,73,75,2.3,RE,1697041612
103,lihue,21.9789,-159.3672,72.64,83,0,5.75,US,1697041612
104,huatabampo,26.8333,-109.6333,84.87,57,0,3.44,MX,1697041613
105,serdar,38.9764,56.2757,64.26,59,63,5.97,TM,1697041613
106,klyuchi,52.2667,79.1667,50.31,44,94,5.5,RU,1697041614
107,puerto ayora,-0.7393,-90.3518,85.96,84,100,8.01,EC,1697041614
108,kirensk,57.7853,108.1119,46.02,84,81,5.99,RU,1697041615
109,ribeira grande,38.5167,-28.7,73.8,73,20,11.01,PT,1697041615
110,nizhnesortymskiy,62.4397,71.7603,38.75,90,100,3.62,RU,1697041616
111,yellowknife,62.456,-114.3525,54.41,86,75,18.41,CA,1697041616
112,natchitoches,31.7668,-93.1335,64.38,88,100,8.05,US,1697041616
113,anshun,26.25,105.9333,59.05,89,100,8.99,CN,1697041617
114,pariaman,-0.619,100.12,77.05,91,54,2.82,ID,1697041617
115,al ghayzah,16.2079,52.176,80.29,77,0,11.48,YE,1697041618
116,nabire,-3.3667,135.4833,77.5,91,100,2.3,ID,1697041618
117,mandalgovi,45.7625,106.2708,42.3,51,5,2.51,MN,1697041619
118,puerto santa,-8.9906,-78.6456,69.12,80,84,8.66,PE,1697041619
119,puerto natales,-51.7236,-72.4875,48.65,46,75,17.27,CL,1697041505
120,atafu village,-8.5421,-172.5159,83.35,75,40,10.42,TK,1697041620
121,stanley,54.868,-1.6985,50.72,75,20,13.8,GB,1697041621
122,turmalina,-17.2856,-42.73,88.45,36,69,6.64,BR,1697041621
123,whitehorse,60.7161,-135.0538,35.82,93,100,2.3,CA,1697041621
124,hays,30.0502,-98.0336,71.96,87,100,4.0,US,1697041622
125,dem'yanovo,60.3511,47.0842,35.24,78,100,9.28,RU,1697041622
126,berdigestyakh,62.0989,126.6992,51.3,80,100,15.01,RU,1697041623
127,palmer,42.1584,-72.3287,67.06,57,75,10.36,US,1697041623
128,rajanpur,29.1035,70.325,87.46,14,0,7.67,PK,1697041624
129,chonchi,-42.6128,-73.8092,51.01,50,28,5.23,CL,1697041624
130,diawara,15.022,-12.5437,96.94,36,100,12.64,SN,1697041625
131,shorewood,41.52,-88.2017,63.64,51,0,4.61,US,1697041625
132,nizhnevartovsk,60.9344,76.5531,39.22,93,20,7.0,RU,1697041625
133,santa cruz,-17.8,-63.1667,95.05,43,40,27.63,BO,1697041437
134,shingu,33.7333,135.9833,60.01,73,16,5.7,JP,1697041626
135,inirida,3.8653,-67.9239,93.09,51,74,2.64,CO,1697041627
136,la mira,18.035,-102.3266,76.89,95,99,7.07,MX,1697041627
137,mejit,10.2753,170.8646,81.7,79,41,15.14,MH,1697041628
138,georgetown,5.4112,100.3354,84.13,84,20,5.99,MY,1697041329
139,dalandzadgad,43.5708,104.425,49.64,32,8,1.72,MN,1697041629
140,kodiak,57.79,-152.4072,31.51,74,0,10.36,US,1697041629
141,codrington,-38.2667,141.9667,55.78,90,98,14.2,AU,1697041631
142,porto novo,6.4965,2.6036,85.82,67,64,9.42,BJ,1697041631
143,turek,52.0155,18.5005,68.5,51,100,16.08,PL,1697041632
144,keflavik,64.0049,-22.5624,39.11,75,100,5.75,IS,1697041632
145,saint-jean-de-monts,46.7833,-2.0667,69.84,73,97,12.35,FR,1697041632
146,okha,53.5739,142.9478,48.79,65,100,22.15,RU,1697041633
147,horta,38.5333,-28.6333,73.04,79,20,11.01,PT,1697041633
148,raja,8.4596,25.678,79.21,70,100,2.44,SS,1697041634
149,qaqortoq,60.7167,-46.0333,41.25,69,88,2.01,GL,1697041634
150,ilulissat,69.2167,-51.1,24.82,74,40,2.3,GL,1697041635
151,isafjordur,66.0755,-23.124,35.64,69,100,3.44,IS,1697041635
152,vilyuchinsk,52.9306,158.4028,38.93,72,17,12.8,RU,1697041636
153,ha'il,27.5219,41.6907,91.42,17,20,6.91,SA,1697041636
154,nema,57.5067,50.5011,36.66,69,100,4.61,RU,1697041637
155,songjianghe,42.1859,127.479,40.26,72,1,3.78,CN,1697041637
156,saipan,15.1355,145.701,83.1,89,20,17.27,MP,1697041637
157,sitka,57.0531,-135.33,48.09,93,75,0.0,US,1697041638
158,kodinsk,58.6881,99.1844,50.43,78,95,4.85,RU,1697041638
159,alto barinas,8.5931,-70.2261,90.75,50,2,4.65,VE,1697041639
160,hepingjie,42.0597,126.9158,42.58,75,2,1.74,CN,1697041639
161,korla,41.7597,86.1469,65.19,35,20,4.41,CN,1697041463
162,hithadhoo,-0.6,73.0833,81.77,75,11,15.77,MV,1697041640
163,punta arenas,-53.15,-70.9167,48.31,57,75,28.77,CL,1697041459
164,maintirano,-18.0667,44.0167,78.24,81,4,10.47,MG,1697041641
165,vasyurinskaya,45.1181,39.424,50.41,34,0,8.52,RU,1697041642
166,bathsheba,13.2167,-59.5167,86.61,79,75,12.66,BB,1697041642
167,nemuro,43.3236,145.575,51.31,66,52,10.02,JP,1697041643
168,bilibino,68.0546,166.4372,13.96,92,100,3.83,RU,1697041643
169,kaifeng,34.7911,114.3483,63.39,51,100,4.85,CN,1697041644
170,curup,-3.4667,102.5333,71.69,91,98,1.28,ID,1697041644
171,novoselitskoye,44.7508,43.4369,45.32,36,4,8.61,RU,1697041645
172,baharly,38.4362,57.4316,74.73,38,63,7.78,TM,1697041645
173,pandan,14.0453,124.1694,80.33,85,98,3.69,PH,1697041645
174,westport,41.1415,-73.3579,70.09,59,0,10.0,US,1697041574
175,toktogul,41.8708,72.9402,65.05,33,51,1.81,KG,1697041646
176,lorengau,-2.0226,147.2712,80.22,86,69,8.37,PG,1697041647
177,gurupa,-1.405,-51.64,100.08,29,58,4.45,BR,1697041647
178,olonkinbyen,70.9221,-8.7187,35.49,76,100,20.51,SJ,1697041648
179,port lincoln,-34.7333,135.8667,56.16,72,4,21.45,AU,1697041648
180,bovalino,38.149,16.174,76.89,67,27,2.19,IT,1697041649
181,anadyr,64.75,177.4833,32.5,86,75,20.13,RU,1697041649
182,demidov,55.2706,31.515,49.24,48,100,17.98,RU,1697041649
183,point pedro,9.8167,80.2333,80.47,84,93,12.37,LK,1697041650
184,kloulklubed,7.0419,134.2556,81.1,80,98,24.05,PW,1697041650
185,palpa,-14.5336,-75.1856,86.61,38,65,7.16,PE,1697041651
186,kuta,-8.7233,115.1723,80.55,88,40,8.05,ID,1697041424
187,chebba,35.2372,11.115,78.42,57,3,6.49,TN,1697041653
188,aketi,2.7388,23.7833,76.42,84,98,2.35,CD,1697041653
189,kismayo,-0.3582,42.5454,78.82,83,83,11.81,SO,1697041654
190,goias,-15.5807,-49.6362,99.36,26,14,7.2,BR,1697041654
191,bonthe,7.5264,-12.505,82.42,78,94,8.9,SL,1697041655
192,petra,30.3222,35.4793,64.54,55,13,4.54,JO,1697041655
193,thompson,55.7435,-97.8558,42.96,75,20,2.3,CA,1697041656
194,puerto baquerizo moreno,-0.9,-89.6,79.79,74,75,18.41,EC,1697041656
195,sumenep,-7.0167,113.8667,81.16,72,100,9.98,ID,1697041656
196,guanajuato,21.0186,-101.2591,59.79,86,100,10.83,MX,1697041657
197,natal,-5.795,-35.2094,88.45,54,40,17.27,BR,1697041657
198,shalya,57.2471,58.7298,35.13,96,100,7.47,RU,1697041658
199,kurmuk,10.55,34.2833,78.13,70,55,5.44,SD,1697041658
200,mount pearl,47.5166,-52.7813,59.85,95,100,12.66,CA,1697041659
201,tucupita,9.0622,-62.051,97.7,39,10,4.56,VE,1697041659
202,kerikeri,-35.2268,173.9474,48.9,90,5,4.79,NZ,1697041660
203,chakvi,41.7187,41.7335,57.18,100,75,4.61,GE,1697041660
204,barcelos,41.5388,-8.6151,82.92,38,90,4.09,PT,1697041661
205,alajarvi,63.0,23.8167,51.26,93,100,12.01,FI,1697041661
206,ixtapa,20.7,-105.2,82.22,78,75,6.91,MX,1697041662
207,yilan,24.757,121.753,77.02,94,100,0.96,TW,1697041550
208,san rafael,-34.6177,-68.3301,56.44,32,72,10.85,AR,1697041584
209,bardai,11.65,7.2333,91.02,34,31,5.35,NG,1697041663
210,mount isa,-20.7333,139.5,64.17,77,82,0.0,AU,1697041663
211,mahina,-17.5065,-149.489,74.97,83,40,2.3,PF,1697041664
212,ebon,4.582,168.6964,82.98,75,97,5.21,MH,1697041664
213,anderson,34.5334,-82.6499,69.78,69,0,3.44,US,1697041507
214,kapa'a,22.0752,-159.319,73.38,83,0,5.75,US,1697041665
215,ariquemes,-9.9133,-63.0408,104.41,26,26,3.69,BR,1697041372
216,tweed heads,-28.1817,153.547,60.19,91,40,4.61,AU,1697041666
217,solnechnyy,50.7214,136.6319,42.03,71,33,4.41,RU,1697041667
218,diamond springs,38.6946,-120.8149,56.12,94,0,5.75,US,1697041667
219,nikolayevsk-on-amure,53.1406,140.73,40.06,74,94,6.11,RU,1697041667
220,puerto deseado,-47.7503,-65.8938,50.27,45,53,22.37,AR,1697041668
221,saudarkrokur,65.7461,-19.6394,33.03,82,97,7.25,IS,1697041668
222,vilyuysk,63.7553,121.6247,51.19,77,100,14.0,RU,1697041669
223,ciudad bolivar,8.1222,-63.5497,95.7,41,4,6.29,VE,1697041669
224,puntarenas,9.9763,-84.8384,86.09,71,75,3.74,CR,1697041670
225,yuzhno-kurilsk,44.0306,145.8556,48.38,66,4,7.43,RU,1697041670
226,pergamino,-33.89,-60.5736,59.18,31,75,19.1,AR,1697041671
227,bartica,6.4,-58.6167,93.52,33,17,3.06,GY,1697041671
228,takab,36.4009,47.1133,60.73,45,58,5.37,IR,1697041671
229,hobyo,5.3505,48.5268,81.03,80,28,13.15,SO,1697041672
230,waingapu,-9.6567,120.2641,78.66,77,78,5.28,ID,1697041672
231,saint-joseph,-21.3667,55.6167,73.78,80,71,3.65,RE,1697041673
232,rongelap,11.1635,166.8941,82.0,79,80,9.78,MH,1697041673
233,richland center,43.3347,-90.3868,58.64,56,0,4.32,US,1697041674
234,juan griego,11.0817,-63.9655,91.53,55,4,16.11,VE,1697041674
235,karratha,-20.7377,116.8463,78.62,68,0,9.37,AU,1697041674
236,ivanivka,46.7208,34.553,48.22,28,48,5.06,UA,1697041675
237,forster,-32.1667,152.5167,53.29,100,7,9.17,AU,1697041675
238,new norfolk,-42.7826,147.0587,60.3,66,30,3.87,AU,1697041547
239,poplar bluff,36.757,-90.3929,67.78,63,0,5.01,US,1697041677
240,aykhal,66.0,111.5,35.08,71,10,25.99,RU,1697041678
241,cadale,2.7603,46.3222,80.38,82,80,13.53,SO,1697041678
242,scottsbluff,41.8666,-103.6672,56.52,71,75,3.44,US,1697041679
243,itoman,26.1247,127.6694,80.62,69,20,6.91,JP,1697041679
244,beya,53.0533,90.9139,55.36,59,37,6.76,RU,1697041680
245,sept-iles,50.2001,-66.3821,57.06,77,20,6.91,CA,1697041680
246,ak-dovurak,51.1833,90.6,54.1,53,6,1.01,RU,1697041681
247,ambam,2.3833,11.2833,75.09,93,100,1.74,CM,1697041681
248,poso,-1.3959,120.7524,77.4,73,89,5.5,ID,1697041682
249,alo,7.4178,6.7371,86.18,77,98,1.88,NG,1697041682
250,ribeira brava,32.65,-17.0667,84.13,32,87,5.86,PT,1697041683
251,kununurra,-15.7667,128.7333,80.58,69,83,3.44,AU,1697041555
252,taybad,34.74,60.7756,80.4,17,0,6.35,IR,1697041683
253,badger,64.8,-147.5333,24.67,89,100,0.0,US,1697041684
254,askoy,60.4092,5.226,50.29,66,75,32.21,NO,1697041684
255,arraial do cabo,-22.9661,-42.0278,80.56,69,0,21.85,BR,1697041685
256,mudgee,-32.5943,149.5871,52.45,46,0,1.9,AU,1697041685
257,piti village,13.4626,144.6933,82.31,92,40,4.61,GU,1697041686
258,sinabang,2.4803,96.3801,78.42,84,100,4.36,ID,1697041686
259,cobh,51.8572,-8.2992,56.44,94,75,11.5,IE,1697041687
260,santa fe,-31.6333,-60.7,58.01,76,100,19.17,AR,1697041687
261,mancora,-4.1078,-81.0475,79.02,68,18,9.15,PE,1697041635
262,prince rupert,54.3161,-130.3201,51.49,100,100,3.44,CA,1697041510
263,plettenberg bay,-34.0527,23.3716,63.68,88,95,4.5,ZA,1697041688
264,kristiansund,63.1115,7.732,41.65,81,75,9.22,NO,1697041689
265,kingston,17.997,-76.7936,93.24,70,20,17.27,JM,1697041455
266,lively,46.4334,-81.1498,44.02,95,100,5.82,CA,1697041690
267,antofagasta,-23.65,-70.4,63.68,65,34,9.93,CL,1697041690
268,sola,-13.8833,167.55,76.8,83,100,19.08,VU,1697041691
269,eyl,7.9803,49.8164,81.1,78,33,10.76,SO,1697041692
270,nuuk,64.1835,-51.7216,48.81,46,20,12.66,GL,1697041692
271,balcesti,44.6167,23.95,64.11,40,13,3.89,RO,1697041693
272,newman,37.3138,-121.0208,63.14,60,0,5.66,US,1697041693
273,lauro de freitas,-12.8944,-38.3272,82.42,69,40,13.8,BR,1697041693
274,vorgashor,67.5833,63.95,31.8,82,100,2.19,RU,1697041694
275,makokou,0.5738,12.8642,76.91,90,96,1.12,GA,1697041694
276,warmbad,-28.45,18.7333,82.92,24,100,25.99,NA,1697041695
277,crucecita,-28.95,-58.9833,69.6,84,92,16.98,AR,1697041695
278,happy valley-goose bay,53.3168,-60.3315,55.71,76,100,4.61,CA,1697041696
279,ta`u,-14.2336,-169.5144,79.65,84,58,18.01,AS,1697041696
280,guarapari,-20.6667,-40.4975,74.89,76,74,9.37,BR,1697041697
281,port saint john's,-31.6229,29.5448,68.65,92,100,10.02,ZA,1697041697
282,christchurch,-43.5333,172.6333,41.92,79,22,0.0,NZ,1697041605
283,bay minette,30.883,-87.773,68.2,60,100,6.46,US,1697041478
284,maceio,-9.6658,-35.7353,85.44,58,75,11.5,BR,1697041660
285,kruisfontein,-34.0033,24.7314,63.88,82,100,6.71,ZA,1697041699
286,enewetak,11.3474,162.3373,83.46,78,36,13.33,MH,1697041699
287,rawson,-43.3002,-65.1023,55.11,30,0,5.17,AR,1697041700
288,valasske klobouky,49.1406,18.0076,64.56,80,88,4.72,CZ,1697041700
289,valparaiso,-33.0393,-71.6273,62.01,61,0,10.36,CL,1697041500
290,praia,14.9215,-23.5087,86.54,66,75,6.91,CV,1697041702
291,geraldton,-28.7667,114.6,57.61,67,0,16.11,AU,1697041702
292,sterling,39.0062,-77.4286,69.85,39,20,8.05,US,1697041693
293,minas de marcona,-15.2119,-75.1103,67.03,58,55,15.73,PE,1697041703
294,miri,4.4148,114.0089,78.94,89,40,4.61,MY,1697041703
295,kuala belait,4.5833,114.1833,78.96,86,100,2.46,BN,1697041704
296,tura,25.5198,90.2201,72.45,88,0,3.09,IN,1697041704
297,port alberni,49.2413,-124.8028,54.93,88,100,8.01,CA,1697041705
298,rundu,-17.9333,19.7667,90.9,22,100,14.63,NA,1697041705
299,chernyshkovskiy,48.4219,42.2308,41.81,49,32,7.34,RU,1697041706
300,tayshet,55.9342,98.0044,50.45,68,16,4.99,RU,1697041706
301,lazaro cardenas,17.9583,-102.2,76.96,93,99,9.64,MX,1697041619
302,acworth,34.0659,-84.6769,70.02,78,0,0.0,US,1697040964
303,la passe,45.5549,-0.8967,84.43,40,23,5.53,FR,1697041708
304,labrador city,52.9463,-66.9114,48.11,93,100,0.0,CA,1697041708
305,buka,40.8108,69.1986,71.49,20,39,4.65,UZ,1697041709
306,paphos,34.7667,32.4167,76.78,69,20,4.61,CY,1697041709
307,bereket,39.2446,55.5154,65.05,57,69,2.39,TM,1697041710
308,fuyang,32.9,115.8167,63.63,65,98,5.59,CN,1697041710
309,dali,25.7,100.1833,59.14,94,100,3.47,CN,1697041711
310,nar'yan-mar,67.6713,53.087,34.11,76,22,8.99,RU,1697041711
311,beloyarskiy,63.7119,66.6722,37.0,84,100,13.0,RU,1697041712
312,fort st. john,56.2499,-120.8529,46.29,81,75,5.75,CA,1697041712
313,alofi,-19.0595,-169.9187,69.69,88,100,1.14,NU,1697041713
314,kyotera,-0.6156,31.5175,68.45,83,77,7.94,UG,1697041713
315,amarwara,22.3,79.1667,71.42,55,0,4.12,IN,1697041713
316,berezovyy,51.6667,135.7,42.8,76,72,6.98,RU,1697041714
317,grand falls-windsor,48.9332,-55.6649,60.51,81,100,4.99,CA,1697041522
318,mineiros,-17.5694,-52.5511,93.56,35,39,7.94,BR,1697041715
319,iranshahr,27.2025,60.6848,97.14,13,0,6.91,IR,1697041715
320,yemel'yanovo,56.1681,92.6767,57.49,54,0,7.0,RU,1697041716
321,vila franca do campo,37.7167,-25.4333,67.87,99,100,9.1,PT,1697041716
322,queenstown,-31.8976,26.8753,73.0,38,85,8.52,ZA,1697041717
323,maun,-19.9833,23.4167,96.24,11,76,6.44,BW,1697041567
324,'ain benian,36.8028,2.9219,80.65,66,2,6.78,DZ,1697041717
325,sechura,-5.5569,-80.8222,78.08,60,39,10.47,PE,1697041718
326,zeya,53.75,127.2667,44.49,77,79,2.93,RU,1697041718
327,crane,31.3974,-102.3501,74.68,54,0,12.62,US,1697041464
328,nagqu,31.5,92.0,31.48,52,96,5.26,CN,1697041719
329,ubari,26.5921,12.7805,82.11,21,2,8.95,LY,1697041720
330,khandud,36.9513,72.318,47.46,37,0,0.69,AF,1697041720
331,jamestown,42.097,-79.2353,54.52,93,100,6.91,US,1697041594
332,mahajanga,-15.7167,46.3167,80.62,83,0,12.66,MG,1697041721
333,bei'an,24.5399,109.533,67.28,74,100,5.75,CN,1697041721
334,malabar,-33.9667,151.25,64.13,85,1,3.44,AU,1697041722
335,pedernales,18.0384,-71.744,87.69,63,3,4.52,DO,1697041723
336,likisa,-8.6695,125.6875,63.45,59,100,4.72,TL,1697041723
337,vokhtoga,58.8147,41.0461,39.52,67,100,15.48,RU,1697041724
338,portland,45.5234,-122.6762,55.81,94,100,12.66,US,1697041529
339,ocean shores,46.9737,-124.1563,58.95,95,100,5.75,US,1697041561
340,nueva gerona,21.8833,-82.8,89.69,66,50,21.12,CU,1697041725
341,selebi-phikwe,-21.979,27.8498,86.5,25,8,11.48,BW,1697041726
342,khandyga,62.6667,135.6,27.48,98,100,5.19,RU,1697041726
343,tyup,42.7276,78.3648,52.95,47,1,4.38,KG,1697041727
344,tyumen,57.1522,65.5272,44.1,68,40,8.99,RU,1697041727
345,narvik,68.4384,17.4272,36.81,94,100,7.52,NO,1697041728
346,twon-brass,4.3151,6.2418,80.56,79,77,10.78,NG,1697041728
347,kingsland,30.8,-81.6898,76.98,84,100,2.08,US,1697041729
348,laojunmiao,39.8333,97.7333,49.55,43,100,1.68,CN,1697041729
349,ceerigaabo,10.6162,47.368,70.25,58,74,4.32,SO,1697041729
350,aleksandrovsk-sakhalinskiy,50.8975,142.1561,42.64,83,12,8.01,RU,1697041730
351,alice springs,-23.7,133.8833,60.35,27,2,0.0,AU,1697041730
352,ayr,55.4627,-4.6339,53.58,58,20,19.57,GB,1697041479
353,ciudad sabinas hidalgo,26.5,-100.1667,72.81,81,99,3.76,MX,1697041731
354,dudinka,69.4058,86.1778,34.68,93,100,15.01,RU,1697041732
355,alaghsas,17.0187,8.0168,96.69,11,0,16.11,NE,1697041732
356,margate,51.3813,1.3862,63.9,82,100,5.99,GB,1697041733
357,arar,30.9753,41.0381,91.42,16,75,10.36,SA,1697041733
358,sittwe,20.15,92.9,78.84,87,93,5.97,MM,1697041734
359,sierra grande,-41.606,-65.3557,56.48,20,0,8.86,AR,1697041734
360,nova vicosa,-17.8919,-39.3719,81.43,61,73,12.01,BR,1697041687
361,chojnice,53.6955,17.557,64.58,62,100,14.63,PL,1697041735
362,sao raimundo nonato,-9.0153,-42.6994,97.2,21,5,9.37,BR,1697041735
363,acarau,-2.8856,-40.12,88.7,55,67,19.69,BR,1697041736
364,anapa,44.8908,37.3239,50.99,75,0,6.71,RU,1697041562
365,zhangye,38.9342,100.4517,52.48,54,100,9.26,CN,1697041737
366,sungailiat,-1.85,106.1333,81.41,75,23,8.01,ID,1697041737
367,dawei,14.0833,98.2,76.62,95,99,1.36,MM,1697041738
368,kourou,5.1552,-52.6478,89.65,52,1,10.38,GF,1697041738
369,sigli,5.3848,95.9609,80.24,81,100,2.75,ID,1697041739
370,aasiaat,68.7098,-52.8699,27.95,90,98,5.95,GL,1697041739
371,chulakkurgan,43.765,69.1814,59.2,36,44,3.91,KZ,1697041740
372,waitara,-38.925,174.25,51.49,67,79,22.15,NZ,1697041741
373,holualoa,19.6228,-155.9522,71.87,78,20,5.99,US,1697041741
374,san patricio,28.017,-97.5169,73.24,92,100,6.51,US,1697041742
375,thenia,36.7254,3.5567,79.09,53,4,5.44,DZ,1697041743
376,st. john's,47.5649,-52.7093,60.67,95,100,12.66,CA,1697041655
377,quezon,7.7303,125.0989,72.63,95,100,0.92,PH,1697041744
378,carnarvon,-24.8667,113.6333,70.12,68,55,25.77,AU,1697041744
379,berezovo,63.9381,65.0419,36.97,96,100,15.01,RU,1697041745
380,santa ana,33.7456,-117.8678,69.89,85,75,4.61,US,1697041677
381,lompoc,34.6391,-120.4579,70.79,68,20,20.0,US,1697041746
382,vallenar,-28.5708,-70.7581,80.33,22,0,7.45,CL,1697041746
383,banjar,-8.19,114.9675,75.7,86,49,4.97,ID,1697041747
384,tromso,69.6496,18.957,35.62,80,75,2.3,NO,1697041747
385,ma'rib,15.4591,45.3253,81.36,17,0,5.32,YE,1697041748
386,illela,13.7292,5.2975,100.78,13,12,9.44,NG,1697041749
387,mili,6.0815,171.735,82.94,78,84,6.2,MH,1697041749
388,saldanha,-33.0117,17.9442,68.05,75,30,6.55,ZA,1697041750
389,tvoroyri,61.5556,-6.8111,45.39,78,44,40.76,FO,1697041750
390,norilsk,69.3535,88.2027,33.42,97,100,4.43,RU,1697041750
391,noumea,-22.2763,166.4572,64.38,82,100,10.4,NC,1697041751
392,sao vicente,-23.9631,-46.3919,96.98,43,0,3.44,BR,1697041751
393,polyarnyy,69.1989,33.4478,30.06,75,85,11.34,RU,1697041752
394,brookings,44.3114,-96.7984,58.05,48,0,12.66,US,1697041752
395,vadso,70.0744,29.7487,27.48,93,20,9.22,NO,1697041753
396,katsuura,35.1333,140.3,67.12,64,57,11.03,JP,1697041753
397,nongpoh,25.9,91.8833,74.77,97,0,3.33,IN,1697041754
398,touros,-5.1989,-35.4608,85.98,51,70,17.02,BR,1697041754
399,kosterevo,55.9299,39.6144,38.5,61,100,12.82,RU,1697041755
400,murghob,38.1702,73.9667,41.77,33,14,2.1,TJ,1697041755
401,chivilcoy,-34.8957,-60.0167,59.13,32,93,13.67,AR,1697041639
402,sarangani,5.4033,125.4636,82.54,76,100,10.74,PH,1697041756
403,toamasina,-18.1667,49.3833,75.2,83,20,4.61,MG,1697041757
404,papao,-17.75,-149.55,74.88,83,7,16.06,PF,1697041757
405,petawawa,45.9001,-77.3328,54.79,74,75,5.75,CA,1697041758
406,weno,7.4515,151.8468,84.24,76,94,9.06,FM,1697041758
407,port victoria,0.0939,33.9756,69.57,83,66,5.5,KE,1697041759
408,hasaki,35.7333,140.8333,59.4,53,13,12.39,JP,1697041759
409,piacabucu,-10.4056,-36.4344,83.28,58,12,11.45,BR,1697041760
410,galliano,29.4422,-90.2992,71.6,88,100,8.05,US,1697041760
411,lamu,-2.2717,40.902,77.97,85,89,12.66,KE,1697041761
412,ballina,-28.8667,153.5667,58.78,84,4,6.15,AU,1697041761
413,kunshan,31.3776,120.9543,64.29,76,4,5.53,CN,1697041761
414,carbondale,37.7273,-89.2168,67.05,57,0,11.5,US,1697041742
415,oneonta,42.4529,-75.0638,59.29,73,98,10.07,US,1697041762
416,tazacorte,28.629,-17.9293,81.57,61,0,4.61,ES,1697041763
417,nacozari de garcia,30.3742,-109.6908,75.18,32,0,7.09,MX,1697041763
418,messaad,34.1543,3.5031,77.14,25,0,11.14,DZ,1697041764
419,namibe,-15.1961,12.1522,69.93,81,88,11.72,AO,1697041765
420,howrah,22.5892,88.3103,87.8,74,20,3.44,IN,1697041765
421,farshut,26.0549,32.1633,84.15,27,0,11.97,EG,1697041766
422,idri,27.5,13.2667,82.96,22,1,7.18,LY,1697041766
423,varzea da palma,-17.5981,-44.7308,94.53,32,23,7.85,BR,1697041749
424,cajabamba,-7.6167,-78.05,68.74,42,94,6.2,PE,1697041767
425,tsiombe,-25.3,45.4833,69.82,77,95,12.93,MG,1697041767
426,beli,7.8587,10.9719,88.38,68,77,1.1,NG,1697041768
427,shakhan,49.8233,72.6342,48.15,42,85,5.46,KZ,1697041768
428,ghat,24.9647,10.1728,86.68,18,11,10.56,LY,1697041769
429,gannan,47.9147,123.5031,53.89,54,0,5.68,CN,1697041769
430,san luis de la loma,17.2706,-100.8939,79.45,86,96,3.76,MX,1697041770
431,port shepstone,-30.7414,30.455,70.92,88,95,8.25,ZA,1697041606
432,san luis,-33.295,-66.3356,60.51,29,12,21.3,AR,1697041771
433,krylovskaya,46.3194,39.9711,46.11,38,0,4.43,RU,1697041771
434,marinette,45.1,-87.6307,52.29,66,100,3.44,US,1697041772
435,trairi,-3.2778,-39.2689,87.73,52,36,17.09,BR,1697041525
436,kerema,-7.9631,145.7785,76.89,92,95,4.25,PG,1697041772
437,mazsalaca,57.8633,25.0547,56.77,89,100,19.86,LV,1697041773
438,rengasdengklok,-6.1592,107.2981,82.53,76,37,2.59,ID,1697041773
439,lensk,60.7253,114.9278,54.72,66,100,11.01,RU,1697041774
440,kazanskoye,55.6448,69.235,45.12,63,100,12.77,RU,1697041774
441,bourbon-lancy,46.6221,3.7695,82.09,33,2,4.07,FR,1697041775
442,oshnaviyeh,37.0397,45.0983,62.78,57,79,5.1,IR,1697041775
443,villa tecolutilla,18.2833,-93.3167,86.65,69,100,4.83,MX,1697041776
444,gaigeturi,33.4644,126.3183,66.25,59,0,8.05,KR,1697041776
445,mukalla,14.5425,49.1242,82.81,78,9,6.06,YE,1697041485
446,sumbe,-11.2061,13.8437,77.23,79,85,7.43,AO,1697041777
447,baiyin,36.5583,104.2081,48.24,81,100,12.84,CN,1697041778
448,kollam,8.8833,76.6,78.93,84,97,3.89,IN,1697041778
449,gubkinskiy,64.434,76.5026,37.06,80,100,6.04,RU,1697041778
450,prado,-17.3411,-39.2208,81.21,62,75,10.83,BR,1697041779
451,camberwell,-37.842,145.0694,73.9,38,95,4.0,AU,1697041779
452,benjamin constant,-4.3831,-70.0311,89.73,74,20,4.61,BR,1697041780
453,mangrol,21.1167,70.1167,80.73,74,0,10.29,IN,1697041780
454,podgornoye,51.735,39.1496,42.66,69,0,4.47,RU,1697041781
455,ishigaki,24.3448,124.1572,77.13,73,20,9.22,JP,1697041781
456,itai,-23.4178,-49.0906,91.53,29,29,5.82,BR,1697041782
457,opuwo,-18.0607,13.84,87.26,20,85,8.48,NA,1697041782
458,bodaybo,57.8506,114.1933,46.18,78,100,5.01,RU,1697041782
459,parnu,58.3859,24.4971,55.49,100,100,23.02,EE,1697041783
460,turkmenbasy,40.0222,52.9552,59.77,58,0,13.8,TM,1697041784
461,lhokseumawe,5.1801,97.1507,80.02,83,96,5.08,ID,1697041784
462,el fasher,13.6279,25.3494,94.41,14,42,10.4,SD,1697041785
463,gulu,2.7746,32.299,66.92,95,100,5.93,UG,1697041785
464,blackwater,-23.5833,148.8833,61.7,100,1,7.09,AU,1697041786
465,tandil,-37.3217,-59.1332,51.69,33,43,19.35,AR,1697041786
466,harper,4.375,-7.7169,79.09,85,100,8.52,LR,1697041787
467,coron,11.9986,120.2043,76.12,92,100,2.46,PH,1697041788
468,illizi,26.4833,8.4667,91.2,16,7,15.43,DZ,1697041788
469,pokachi,61.7198,75.3683,38.93,83,100,6.26,RU,1697041788
470,san jose de las lajas,22.9614,-82.1511,77.92,65,98,19.04,CU,1697041789
471,arvayheer,46.2639,102.775,41.31,55,8,5.28,MN,1697041790
472,changuinola,9.4333,-82.5167,81.95,76,100,3.0,PA,1697041790
473,santana,-0.0583,-51.1817,93.38,49,20,16.11,BR,1697041791
474,zhob,31.3411,69.4481,70.75,13,11,4.76,PK,1697041791
475,ancud,-41.8697,-73.8203,51.71,52,11,4.83,CL,1697041793
476,ardakan,32.31,54.0175,83.19,17,1,16.98,IR,1697041793
477,burang,30.25,81.1667,40.87,73,11,1.23,CN,1697041794
478,kidal,18.4411,1.4078,99.7,9,52,10.6,ML,1697041795
479,cole harbour,44.6724,-63.4751,60.98,86,100,13.8,CA,1697041795
480,phan rang-thap cham,11.5667,108.9833,78.01,92,95,3.85,VN,1697041797
481,fort bragg,35.139,-79.006,74.64,54,98,3.0,US,1697041798
482,pont rouge,48.8833,-72.0825,51.91,67,100,6.87,CA,1697041799
483,melfi,40.9965,15.6514,75.49,41,0,6.58,IT,1697041799
484,pisco,-13.7,-76.2167,70.02,73,0,10.36,PE,1697041800
485,porbandar,21.6422,69.6093,81.63,69,0,9.98,IN,1697041800
486,tindouf,27.6711,-8.1474,91.85,13,0,17.27,DZ,1697041801
487,fale old settlement,-9.3852,-171.2468,82.29,77,65,11.95,TK,1697041801
488,perryton,36.4,-100.8027,75.2,42,0,14.97,US,1697041683
489,oodweyne,9.4092,45.064,80.58,49,30,6.69,SO,1697041803
490,north elba,44.2434,-73.9543,49.17,78,100,3.0,US,1697041803
491,madalena,41.2162,-8.3345,83.75,48,95,4.88,PT,1697041804
492,fismes,49.3077,3.6861,73.63,47,87,7.07,FR,1697041804
493,strathmore,51.0501,-113.3852,49.41,96,100,9.22,CA,1697041800
494,turbat,26.0023,63.044,85.86,60,0,3.62,PK,1697041805
495,al jawf,29.5,38.75,79.72,35,73,13.29,SA,1697041806
496,sainte-rose,16.3324,-61.6979,87.84,70,75,4.61,GP,1697041806
497,ikovka,55.6089,64.9375,42.21,84,99,8.37,RU,1697041807
498,nyala,12.05,24.8833,89.37,20,96,7.11,SD,1697041809
499,cabo san lucas,22.8909,-109.9124,86.76,68,0,14.97,MX,1697041643
500,richards bay,-28.783,32.0377,74.03,83,75,2.64,ZA,1697041810
501,leninskoye,41.7589,69.3864,69.57,21,1,4.72,KZ,1697041810
502,peace river,56.2501,-117.286,50.31,100,40,8.05,CA,1697041811
503,melong,5.1218,9.9614,70.81,93,43,1.41,CM,1697041811
504,vernon,50.2581,-119.2691,53.29,78,31,5.01,CA,1697041812
505,voula,37.8422,23.7765,71.74,49,20,16.11,GR,1697041812
506,khon kaen,16.5,102.0833,74.55,90,55,1.28,TH,1697041813
507,pak phanang,8.3511,100.202,80.69,81,85,0.85,TH,1697041814
508,bandeirantes,-23.11,-50.3675,94.44,29,48,3.47,BR,1697041648
509,kampene,-3.6,26.6667,70.3,93,100,2.17,CD,1697041815
510,al hazm,16.1641,44.7769,81.21,15,0,6.22,YE,1697041815
511,ingeniero guillermo n. juarez,-23.9,-61.85,103.98,25,54,3.06,AR,1697041816
512,akrehamn,59.2667,5.1833,53.42,76,75,46.04,NO,1697041816
513,male,4.1748,73.5089,84.15,79,75,6.91,MV,1697041702
514,chinde,26.8418,88.0763,60.28,88,4,4.7,NP,1697041817
515,rabaul,-4.1967,152.1721,80.4,81,84,2.68,PG,1697041818
516,colonia,50.9333,6.95,74.88,47,0,6.91,DE,1697041649
517,tapes,-30.6733,-51.3958,74.14,84,100,7.72,BR,1697041670
518,yardimli,38.9206,48.2372,49.46,94,74,7.52,AZ,1697041820
519,fort-shevchenko,44.5086,50.263,53.56,57,97,15.52,KZ,1697041821
520,moundou,8.5667,16.0833,78.62,84,59,3.09,TD,1697041821
521,lethbridge,49.7,-112.8186,52.77,82,75,10.36,CA,1697041725
522,cannonvale,-20.2833,148.7,70.99,71,48,15.77,AU,1697041823
523,tralee,52.2704,-9.7026,52.05,93,75,5.75,IE,1697041539
524,priozersk,61.0393,30.1291,56.1,93,100,20.76,RU,1697041825
525,baud,20.8333,84.3167,77.18,81,0,1.63,IN,1697041826
526,turpan,42.9333,89.1667,71.58,18,49,1.72,CN,1697041827
527,lagoa,39.05,-27.9833,68.65,77,1,12.91,PT,1697041827
528,sligo,54.2697,-8.4694,52.61,62,40,11.5,IE,1697041828
529,mata-utu,-13.2816,-176.1745,81.1,82,55,21.16,WF,1697041831
530,tomatlan,19.9333,-105.25,86.16,65,14,2.06,MX,1697041832
531,watari,38.035,140.8511,51.78,73,10,3.96,JP,1697041832
532,baldone,56.7428,24.3944,56.95,85,100,15.99,LV,1697041833
533,miquelon,47.0975,-56.3814,60.8,83,100,11.63,PM,1697041833
534,laguna,38.421,-121.4238,62.69,85,0,4.61,US,1697041834
535,atbasar,51.8,68.3333,45.36,57,99,6.69,KZ,1697041835
536,meadow lake,34.8014,-106.5436,71.96,42,0,12.53,US,1697041835
537,minooka,41.4553,-88.2617,64.09,51,0,4.61,US,1697041764
538,shemysheyka,52.892,45.3928,36.03,76,90,6.22,RU,1697041836
539,winthrop harbor,42.4789,-87.8237,63.19,47,0,8.05,US,1697041837
540,ambon,-3.6954,128.1814,82.87,95,40,1.14,ID,1697041713
541,puerto madryn,-42.7692,-65.0385,55.63,29,0,5.03,AR,1697041776
542,agat village,13.3886,144.6585,82.36,92,40,5.01,GU,1697041839
543,ostersund,63.1792,14.6357,39.65,100,0,11.5,SE,1697041839
544,kyzyl-suu,42.3414,78.0056,53.04,43,0,5.88,KG,1697041840
545,barra de santo antonio,-9.4047,-35.5072,85.28,61,4,9.35,BR,1697041841
546,naze,28.3667,129.4833,74.32,68,71,15.43,JP,1697041841
547,micoud,13.8167,-60.9,87.73,75,20,11.5,LC,1697041842
548,heunghae,36.1125,129.3522,58.32,69,18,3.76,KR,1697041842
549,pointe-du-lac,46.2869,-72.6845,52.79,94,100,6.91,CA,1697041843
550,westfield,42.1251,-72.7495,68.63,70,75,10.36,US,1697041843
551,visaginas,55.6,26.4167,53.46,85,100,16.91,LT,1697041844
552,namtsy,62.7161,129.6658,50.04,81,100,19.8,RU,1697041844
553,labytnangi,66.6572,66.4183,33.98,78,100,4.29,RU,1697041845
554,galveston,29.3669,-94.9669,69.06,90,100,20.02,US,1697041845
555,lundazi,-12.2929,33.1782,76.32,30,49,9.95,ZM,1697041846
556,as sulayyil,20.4607,45.5779,91.65,17,0,7.52,SA,1697041846
557,constitucion,-35.3333,-72.4167,58.84,55,0,14.36,CL,1697041847
558,kedainiai,55.2883,23.9747,57.67,75,100,16.24,LT,1697041778
559,whitburn,54.9533,-1.3686,53.15,73,100,13.0,GB,1697041848
560,vilhena,-12.7406,-60.1458,89.82,51,20,6.91,BR,1697041848
561,wukari,7.85,9.7833,82.13,78,55,6.22,NG,1697041849
562,woolgoolga,-30.1106,153.2007,62.47,91,7,6.29,AU,1697041849
563,nishinoomote,30.7333,131.0,73.04,64,14,18.12,JP,1697041850
564,necochea,-38.5473,-58.7368,50.09,49,39,19.66,AR,1697041850
